[
  {
    "name": "Central Ohio Food Bank",
    "purpose": "Emergency food assistance",
    "location": "3960 Brookham Dr, Grove City, OH 43123",
    "website": "https://www.midohiofoodbank.org",
    "phone": "(614) 317-9493",
    "hours": "Mon-Fri 9AM-4PM",
    "category": "Food",
    "type": "Food Bank",
    "lat": 39.8814,
    "lng": -83.0924,
    "description": "Provides emergency food assistance to families in need"
  },
  {
    "name": "YMCA Family Center",
    "purpose": "Emergency shelter",
    "location": "2465 Citygate Dr, Columbus, OH 43219",
    "website": "https://www.ymcacolumbus.org",
    "phone": "(614) 294-7221",
    "hours": "24/7",
    "category": "Housing",
    "type": "Emergency Shelter",
    "lat": 39.9912,
    "lng": -82.9988,
    "description": "Emergency housing assistance and shelter services"
  },
  {
    "name": "Directions for Mental Health",
    "purpose": "Mental health counseling",
    "location": "1515 E Broad St, Columbus, OH 43203",
    "website": "https://www.directionsmentalhealth.org",
    "phone": "(614) 299-6476",
    "hours": "Mon-Fri 8AM-5PM",
    "category": "Mental Health",
    "type": "Counseling Center",
    "lat": 39.9612,
    "lng": -82.9400,
    "description": "Mental health counseling and support services"
  },
  {
    "name": "Nationwide Children's Hospital",
    "purpose": "Pediatric healthcare",
    "location": "700 Children's Dr, Columbus, OH 43205",
    "website": "https://www.nationwidechildrens.org",
    "phone": "(614) 722-2000",
    "hours": "24/7 Emergency",
    "category": "Healthcare",
    "type": "Hospital",
    "lat": 39.9493,
    "lng": -83.0196,
    "description": "Comprehensive pediatric healthcare services"
  },
  {
    "name": "National Suicide Prevention Lifeline",
    "purpose": "Crisis support",
    "location": "Columbus, OH (Phone Service)",
    "website": "https://www.suicidepreventionlifeline.org",
    "phone": "988",
    "hours": "24/7",
    "category": "Crisis",
    "type": "Hotline",
    "lat": 39.9612,
    "lng": -82.9988,
    "description": "24/7 crisis support and suicide prevention services"
  },
  {
    "name": "Columbus State Community College",
    "purpose": "Job training and education",
    "location": "550 E Spring St, Columbus, OH 43215",
    "website": "https://www.cscc.edu",
    "phone": "(614) 287-2400",
    "hours": "Mon-Fri 8AM-5PM",
    "category": "Employment", 
    "type": "Training Center",
    "lat": 39.9634,
    "lng": -82.9951,
    "description": "Career training and employment assistance programs"
  },
  {
    "name": "Mid-Ohio Foodbank - Westside",
    "purpose": "Food pantry",
    "location": "1265 Kinnear Rd, Columbus, OH 43212",
    "website": "https://www.midohiofoodbank.org",
    "phone": "(614) 317-9493",
    "hours": "Tue, Thu 10AM-2PM",
    "category": "Food",
    "type": "Food Pantry",
    "lat": 39.9912,
    "lng": -83.0451,
    "description": "Food pantry serving west Columbus area"
  },
  {
    "name": "Friends of the Homeless",
    "purpose": "Homeless services",
    "location": "1432 Cleveland Ave, Columbus, OH 43211",
    "website": "https://www.friendsofthehomeless.org",
    "phone": "(614) 294-7331",
    "hours": "Mon-Fri 9AM-5PM",
    "category": "Housing",
    "type": "Homeless Services",
    "lat": 39.9851,
    "lng": -82.9944,
    "description": "Comprehensive homeless services and housing assistance"
  }
]